{"type":"FeatureCollection","totalFeatures":197,"features":[{"type":"Feature","id":"Buurtsportinfrastructuur.1","geometry":{"type":"Point","coordinates":[3.7021629901751,51.041078769588]},"geometry_name":"Shape","properties":{"Sport":"Basketbal","Status":"R","Naam":"Duifhuisstraat speelterrein","SportID":null,"NUMMER":167,"Wijk":"Stationsbuurt Noord"}},{"type":"Feature","id":"Buurtsportinfrastructuur.2","geometry":{"type":"Point","coordinates":[3.6990680442897,51.060987658433]},"geometry_name":"Shape","properties":{"Sport":"Basketbal","Status":"R","Naam":"Acaciastraat Acaciapark","SportID":null,"NUMMER":31,"Wijk":"Brugse Poort - Rooigem"}},{"type":"Feature","id":"Buurtsportinfrastructuur.3","geometry":{"type":"Point","coordinates":[3.7064896772321,51.081673277119]},"geometry_name":"Shape","properties":{"Sport":"Basketbal","Status":"R","Naam":"Roodborstjesstraat speelterrein","SportID":null,"NUMMER":189,"Wijk":"Wondelgem"}},{"type":"Feature","id":"Buurtsportinfrastructuur.4","geometry":{"type":"Point","coordinates":[3.7069783113393,51.029526573723]},"geometry_name":"Shape","properties":{"Sport":"Basketbal","Status":"R","Naam":"Flamingostraat speelterrein","SportID":null,"NUMMER":173,"Wijk":"Stationsbuurt Zuid"}},{"type":"Feature","id":"Buurtsportinfrastructuur.5","geometry":{"type":"Point","coordinates":[3.7586033390774,51.058521551712]},"geometry_name":"Shape","properties":{"Sport":"Basketbal","Status":"R","Naam":"Rozebroekslag S&R sporthalcomplex Rozebroeken","SportID":null,"NUMMER":134,"Wijk":"Sint Amandsberg"}},{"type":"Feature","id":"Buurtsportinfrastructuur.6","geometry":{"type":"Point","coordinates":[3.7265099610487,51.018267780728]},"geometry_name":"Shape","properties":{"Sport":"Basketbal","Status":"R","Naam":"Steenakker Henri Storyplein","SportID":null,"NUMMER":103,"Wijk":"Nieuw Gent - UZ"}},{"type":"Feature","id":"Buurtsportinfrastructuur.7","geometry":{"type":"Point","coordinates":[3.750329992753,51.060668137959]},"geometry_name":"Shape","properties":{"Sport":"Basketbal","Status":"R","Naam":"Azaleastraat Azaleapark","SportID":null,"NUMMER":135,"Wijk":"Sint Amandsberg"}},{"type":"Feature","id":"Buurtsportinfrastructuur.8","geometry":{"type":"Point","coordinates":[3.7370624203856,51.054241738808]},"geometry_name":"Shape","properties":{"Sport":"Basketbal","Status":"R","Naam":"Spaans Kasteelplein speelterrein","SportID":null,"NUMMER":72,"Wijk":"Macharius - Heirnis"}},{"type":"Feature","id":"Buurtsportinfrastructuur.9","geometry":{"type":"Point","coordinates":[3.7279633722963,51.061585324503]},"geometry_name":"Shape","properties":{"Sport":"Basketbal","Status":"R","Naam":"Godshuishammeke speelterrein","SportID":null,"NUMMER":156,"Wijk":"Sluizeken - Tolhuis - Ham"}},{"type":"Feature","id":"Buurtsportinfrastructuur.10","geometry":{"type":"Point","coordinates":[3.7444170973983,51.0336729899]},"geometry_name":"Shape","properties":{"Sport":"Basketbal","Status":"R","Naam":"Moriaanstraat buurttuin en speelloods","SportID":null,"NUMMER":63,"Wijk":"Ledeberg"}},{"type":"Feature","id":"Buurtsportinfrastructuur.11","geometry":{"type":"Point","coordinates":[3.745094286087,51.055776272083]},"geometry_name":"Shape","properties":{"Sport":"Basketbal","Status":"R","Naam":"Wasstraat speelterrein","SportID":null,"NUMMER":42,"Wijk":"Dampoort"}},{"type":"Feature","id":"Buurtsportinfrastructuur.12","geometry":{"type":"Point","coordinates":[3.7623319745306,51.077260617669]},"geometry_name":"Shape","properties":{"Sport":"Basketbal","Status":"R","Naam":"Invalidenstraat speelterrein","SportID":null,"NUMMER":112,"Wijk":"Oostakker"}},{"type":"Feature","id":"Buurtsportinfrastructuur.13","geometry":{"type":"Point","coordinates":[3.669337656768,51.019912648811]},"geometry_name":"Shape","properties":{"Sport":"Basketbal","Status":"R","Naam":"Krijzeltand speelterrein","SportID":null,"NUMMER":154,"Wijk":"Sint Denijs Westrem"}},{"type":"Feature","id":"Buurtsportinfrastructuur.14","geometry":{"type":"Point","coordinates":[3.7750442164742,51.066837658854]},"geometry_name":"Shape","properties":{"Sport":"Basketbal","Status":"R","Naam":"Heiveldstraat bibliotheek speelterrein","SportID":null,"NUMMER":136,"Wijk":"Sint Amandsberg"}},{"type":"Feature","id":"Buurtsportinfrastructuur.15","geometry":{"type":"Point","coordinates":[3.7461824737811,51.049206949265]},"geometry_name":"Shape","properties":{"Sport":"Basketbal","Status":"R","Naam":"Wolterslaan speelterrein","SportID":null,"NUMMER":43,"Wijk":"Dampoort"}},{"type":"Feature","id":"Buurtsportinfrastructuur.16","geometry":{"type":"Point","coordinates":[3.7417710684064,51.042791963511]},"geometry_name":"Shape","properties":{"Sport":"Basketbal","Status":"R","Naam":"Brusselsesteenweg Keizerpark","SportID":null,"NUMMER":121,"Wijk":"Oud Gentbrugge"}},{"type":"Feature","id":"Buurtsportinfrastructuur.17","geometry":{"type":"Point","coordinates":[3.71880810584,51.037725005526]},"geometry_name":"Shape","properties":{"Sport":"Basketbal","Status":"R","Naam":"Koning Leopold II laan Citadelpark","SportID":null,"NUMMER":168,"Wijk":"Stationsbuurt Noord"}},{"type":"Feature","id":"Buurtsportinfrastructuur.18","geometry":{"type":"Point","coordinates":[3.7530776822889,51.044895410173]},"geometry_name":"Shape","properties":{"Sport":"Basketbal","Status":"R","Naam":"Kerkstraat  Arbedpark","SportID":null,"NUMMER":122,"Wijk":"Oud Gentbrugge"}},{"type":"Feature","id":"Buurtsportinfrastructuur.19","geometry":{"type":"Point","coordinates":[3.7059475933655,51.045156816027]},"geometry_name":"Shape","properties":{"Sport":"Basketbal","Status":"R","Naam":"Verenigde-Natieslaan speelterrein","SportID":null,"NUMMER":176,"Wijk":"Watersportbaan - Ekkergem"}},{"type":"Feature","id":"Buurtsportinfrastructuur.20","geometry":{"type":"Point","coordinates":[3.7302933586999,51.058262523233]},"geometry_name":"Shape","properties":{"Sport":"Basketbal","Status":"R","Naam":"Bibliotheekstraat Baudelohof","SportID":null,"NUMMER":24,"Wijk":"Binnenstad"}},{"type":"Feature","id":"Buurtsportinfrastructuur.21","geometry":{"type":"Point","coordinates":[3.6961666907379,51.061811653436]},"geometry_name":"Shape","properties":{"Sport":"Basketbal","Status":"R","Naam":"Fonteineplein speelterrein","SportID":null,"NUMMER":32,"Wijk":"Brugse Poort - Rooigem"}},{"type":"Feature","id":"Buurtsportinfrastructuur.22","geometry":{"type":"Point","coordinates":[3.6818181082155,51.066887521727]},"geometry_name":"Shape","properties":{"Sport":"Basketbal","Status":"R","Naam":"Driepikkelstraat sporthal Bourgoyen","SportID":null,"NUMMER":78,"Wijk":"Mariakerke"}},{"type":"Feature","id":"Buurtsportinfrastructuur.23","geometry":{"type":"Point","coordinates":[3.7362463368826,51.035598920536]},"geometry_name":"Shape","properties":{"Sport":"Basketbal","Status":"R","Naam":"Gaston Crommenlaan E3-plein","SportID":null,"NUMMER":64,"Wijk":"Ledeberg"}},{"type":"Feature","id":"Buurtsportinfrastructuur.24","geometry":{"type":"Point","coordinates":[3.7064417979257,51.063252636106]},"geometry_name":"Shape","properties":{"Sport":"Basketbal","Status":"R","Naam":"Gebroeders de Smetstraat speelterrein","SportID":null,"NUMMER":126,"Wijk":"Rabot - Blaisantvest"}},{"type":"Feature","id":"Buurtsportinfrastructuur.25","geometry":{"type":"Point","coordinates":[3.7003143426604,51.075713890795]},"geometry_name":"Shape","properties":{"Sport":"Basketbal","Status":"R","Naam":"Lusthoflaan speelterrein","SportID":null,"NUMMER":79,"Wijk":"Mariakerke"}},{"type":"Feature","id":"Buurtsportinfrastructuur.26","geometry":{"type":"Point","coordinates":[3.8148334687286,51.156780815227]},"geometry_name":"Shape","properties":{"Sport":"Basketbal","Status":"R","Naam":"Georges De Baetsplaats speelterrein","SportID":null,"NUMMER":61,"Wijk":"Kanaaldorpen en -zone"}},{"type":"Feature","id":"Buurtsportinfrastructuur.27","geometry":{"type":"Point","coordinates":[3.6967369538567,51.04643841961]},"geometry_name":"Shape","properties":{"Sport":"Basketbal","Status":"R","Naam":"Belv\u00e9d\u00e8reweg speelterrein","SportID":null,"NUMMER":177,"Wijk":"Watersportbaan - Ekkergem"}},{"type":"Feature","id":"Buurtsportinfrastructuur.28","geometry":{"type":"Point","coordinates":[3.7176867029382,51.021800687487]},"geometry_name":"Shape","properties":{"Sport":"Basketbal","Status":"R","Naam":"Rerum Novarumplein speelterrein","SportID":null,"NUMMER":104,"Wijk":"Nieuw Gent - UZ"}},{"type":"Feature","id":"Buurtsportinfrastructuur.29","geometry":{"type":"Point","coordinates":[3.725061510298,51.063894639188]},"geometry_name":"Shape","properties":{"Sport":"Basketbal","Status":"R","Naam":"Tolhuislaan sporthal Tolhuis","SportID":null,"NUMMER":157,"Wijk":"Sluizeken - Tolhuis - Ham"}},{"type":"Feature","id":"Buurtsportinfrastructuur.30","geometry":{"type":"Point","coordinates":[3.6962965799415,51.059091210073]},"geometry_name":"Shape","properties":{"Sport":"Basketbal","Status":"R","Naam":"Boerderijstraat Boerderijpark","SportID":null,"NUMMER":33,"Wijk":"Brugse Poort - Rooigem"}},{"type":"Feature","id":"Buurtsportinfrastructuur.31","geometry":{"type":"Point","coordinates":[3.7159849766847,51.063975289495]},"geometry_name":"Shape","properties":{"Sport":"Basketbal","Status":"R","Naam":"Opge\u00ebistenlaan Rabotpark","SportID":null,"NUMMER":127,"Wijk":"Rabot - Blaisantvest"}},{"type":"Feature","id":"Buurtsportinfrastructuur.32","geometry":{"type":"Point","coordinates":[3.7640792821999,51.09274340745]},"geometry_name":"Shape","properties":{"Sport":"Basketbal","Status":"R","Naam":"Wolfputstraat sporthal Wolfput","SportID":null,"NUMMER":113,"Wijk":"Oostakker"}},{"type":"Feature","id":"Buurtsportinfrastructuur.33","geometry":{"type":"Point","coordinates":[3.704215542683,51.055007765321]},"geometry_name":"Shape","properties":{"Sport":"Basketbal","Status":"R","Naam":"Nieuwewandeling Groenevalleipark","SportID":null,"NUMMER":34,"Wijk":"Brugse Poort - Rooigem"}},{"type":"Feature","id":"Buurtsportinfrastructuur.34","geometry":{"type":"Point","coordinates":[3.7348853748541,51.059405749202]},"geometry_name":"Shape","properties":{"Sport":"Fitpoint","Status":"R","Naam":"Zondernaamstraat speelterrein","SportID":"04","NUMMER":163,"Wijk":"Sluizeken - Tolhuis - Ham"}},{"type":"Feature","id":"Buurtsportinfrastructuur.35","geometry":{"type":"Point","coordinates":[3.7123367521276,51.004088149982]},"geometry_name":"Shape","properties":{"Sport":"Fitnesstoestellen","Status":"R","Naam":"Hutsepotstraat petanque en fitness","SportID":null,"NUMMER":193,"Wijk":"Zwijnaarde"}},{"type":"Feature","id":"Buurtsportinfrastructuur.36","geometry":{"type":"Point","coordinates":[3.7641340722457,51.026998653638]},"geometry_name":"Shape","properties":{"Sport":"Fitnesstoestellen","Status":"R","Naam":"Pinguinstraat speelterrein","SportID":null,"NUMMER":89,"Wijk":"Moscou - Vogelhoek"}},{"type":"Feature","id":"Buurtsportinfrastructuur.37","geometry":{"type":"Point","coordinates":[3.7167355011383,51.060301138673]},"geometry_name":"Shape","properties":{"Sport":"Fitnesstoestellen","Status":"R","Naam":"Sint-Antoniuskaai petanque en fitness","SportID":null,"NUMMER":162,"Wijk":"Sluizeken - Tolhuis - Ham"}},{"type":"Feature","id":"Buurtsportinfrastructuur.38","geometry":{"type":"Point","coordinates":[3.7278017222576,51.086665974722]},"geometry_name":"Shape","properties":{"Sport":"Fitnesstoestellen","Status":"R","Naam":"Meulesteedsesteenweg speelterrein","SportID":null,"NUMMER":97,"Wijk":"Muide - Meulestede - Afrikalaan"}},{"type":"Feature","id":"Buurtsportinfrastructuur.39","geometry":{"type":"Point","coordinates":[3.7151882141469,51.021179406762]},"geometry_name":"Shape","properties":{"Sport":"Fitpoint","Status":"R","Naam":"Kikvorsstraat speelterrein","SportID":"02","NUMMER":107,"Wijk":"Nieuw Gent - UZ"}},{"type":"Feature","id":"Buurtsportinfrastructuur.40","geometry":{"type":"Point","coordinates":[3.7676740480144,51.097351553643]},"geometry_name":"Shape","properties":{"Sport":"Fitpoint","Status":"R","Naam":"Edmond Ronsestraat speelterrein","SportID":"03","NUMMER":117,"Wijk":"Oostakker"}},{"type":"Feature","id":"Buurtsportinfrastructuur.41","geometry":{"type":"Point","coordinates":[3.7375051137508,51.05180164355]},"geometry_name":"Shape","properties":{"Sport":"Fitnesstoestellen","Status":"R","Naam":"Lousbergkaai petanque en fitness","SportID":null,"NUMMER":74,"Wijk":"Macharius - Heirnis"}},{"type":"Feature","id":"Buurtsportinfrastructuur.42","geometry":{"type":"Point","coordinates":[3.6954967649282,51.069366226879]},"geometry_name":"Shape","properties":{"Sport":"Petanque","Status":"R","Naam":"Staakskensstraat petanque","SportID":null,"NUMMER":28,"Wijk":"Bloemekenswijk"}},{"type":"Feature","id":"Buurtsportinfrastructuur.43","geometry":{"type":"Point","coordinates":[3.7268766614325,51.084306191512]},"geometry_name":"Shape","properties":{"Sport":"Petanque","Status":"R","Naam":"Meulesteedsesteenweg buurttuin 't Postje","SportID":null,"NUMMER":100,"Wijk":"Muide - Meulestede - Afrikalaan"}},{"type":"Feature","id":"Buurtsportinfrastructuur.44","geometry":{"type":"Point","coordinates":[3.7582424076744,51.027766357884]},"geometry_name":"Shape","properties":{"Sport":"Petanque","Status":"R","Naam":"Jules de Saint-Genoislaan De Porre","SportID":null,"NUMMER":90,"Wijk":"Moscou - Vogelhoek"}},{"type":"Feature","id":"Buurtsportinfrastructuur.45","geometry":{"type":"Point","coordinates":[3.7121409705996,51.002121823879]},"geometry_name":"Shape","properties":{"Sport":"Petanque","Status":"R","Naam":"Ter Linden sporthal Hekers","SportID":null,"NUMMER":195,"Wijk":"Zwijnaarde"}},{"type":"Feature","id":"Buurtsportinfrastructuur.46","geometry":{"type":"Point","coordinates":[3.735147320896,51.059303767494]},"geometry_name":"Shape","properties":{"Sport":"Petanque","Status":"R","Naam":"Zondernaamstraat speelterrein","SportID":null,"NUMMER":164,"Wijk":"Sluizeken - Tolhuis - Ham"}},{"type":"Feature","id":"Buurtsportinfrastructuur.47","geometry":{"type":"Point","coordinates":[3.7404592505121,51.033090943025]},"geometry_name":"Shape","properties":{"Sport":"Petanque","Status":"R","Naam":"Hundelgemsesteenweg petanque","SportID":null,"NUMMER":68,"Wijk":"Ledeberg"}},{"type":"Feature","id":"Buurtsportinfrastructuur.48","geometry":{"type":"Point","coordinates":[3.7725139695427,51.035132558434]},"geometry_name":"Shape","properties":{"Sport":"Petanque","Status":"R","Naam":"Ooievaarsnest petanque","SportID":null,"NUMMER":58,"Wijk":"Gentbrugge"}},{"type":"Feature","id":"Buurtsportinfrastructuur.49","geometry":{"type":"Point","coordinates":[3.7537729091485,51.063138484782]},"geometry_name":"Shape","properties":{"Sport":"Petanque","Status":"R","Naam":"Heiveldstraat Potuitpark","SportID":null,"NUMMER":149,"Wijk":"Sint Amandsberg"}},{"type":"Feature","id":"Buurtsportinfrastructuur.50","geometry":{"type":"Point","coordinates":[3.7594978571829,51.058784579016]},"geometry_name":"Shape","properties":{"Sport":"Petanque","Status":"R","Naam":"Rozebroekslag S&R sporthalcomplex Rozebroeken","SportID":null,"NUMMER":147,"Wijk":"Sint Amandsberg"}},{"type":"Feature","id":"Buurtsportinfrastructuur.51","geometry":{"type":"Point","coordinates":[3.7674525342452,51.044183437917]},"geometry_name":"Shape","properties":{"Sport":"Petanque","Status":"R","Naam":"Robiniahof petanque","SportID":null,"NUMMER":59,"Wijk":"Gentbrugge"}},{"type":"Feature","id":"Buurtsportinfrastructuur.52","geometry":{"type":"Point","coordinates":[3.7787648452432,51.075235307793]},"geometry_name":"Shape","properties":{"Sport":"Petanque","Status":"R","Naam":"Antwerpsesteenweg petanque","SportID":null,"NUMMER":118,"Wijk":"Oostakker"}},{"type":"Feature","id":"Buurtsportinfrastructuur.53","geometry":{"type":"Point","coordinates":[3.7161113768318,50.996986130868]},"geometry_name":"Shape","properties":{"Sport":"Petanque","Status":"R","Naam":"Hondelee petanque","SportID":null,"NUMMER":196,"Wijk":"Zwijnaarde"}},{"type":"Feature","id":"Buurtsportinfrastructuur.54","geometry":{"type":"Point","coordinates":[3.7506300956349,51.060282402084]},"geometry_name":"Shape","properties":{"Sport":"Petanque","Status":"R","Naam":"Azaleastraat Azaleapark","SportID":null,"NUMMER":148,"Wijk":"Sint Amandsberg"}},{"type":"Feature","id":"Buurtsportinfrastructuur.55","geometry":{"type":"Point","coordinates":[3.6930092337868,51.036927083146]},"geometry_name":"Shape","properties":{"Sport":"Petanque","Status":"R","Naam":"Stormvogelstraat petanque","SportID":null,"NUMMER":174,"Wijk":"Stationsbuurt Zuid"}},{"type":"Feature","id":"Buurtsportinfrastructuur.56","geometry":{"type":"Point","coordinates":[3.6207226859176,51.066947320524]},"geometry_name":"Shape","properties":{"Sport":"Petanque","Status":"R","Naam":"Joannes Schinckdreef petanque","SportID":null,"NUMMER":51,"Wijk":"Drongen"}},{"type":"Feature","id":"Buurtsportinfrastructuur.57","geometry":{"type":"Point","coordinates":[3.7655837608748,51.098963122747]},"geometry_name":"Shape","properties":{"Sport":"Petanque","Status":"R","Naam":"Sint-Laurentiuslaan Sint-Laurentiuspark","SportID":null,"NUMMER":119,"Wijk":"Oostakker"}},{"type":"Feature","id":"Buurtsportinfrastructuur.58","geometry":{"type":"Point","coordinates":[3.7121119882536,51.003987002362]},"geometry_name":"Shape","properties":{"Sport":"Petanque","Status":"R","Naam":"Hutsepotstraat petanque en fitness","SportID":null,"NUMMER":194,"Wijk":"Zwijnaarde"}},{"type":"Feature","id":"Buurtsportinfrastructuur.59","geometry":{"type":"Point","coordinates":[3.657796182846,51.049807668379]},"geometry_name":"Shape","properties":{"Sport":"Petanque","Status":"R","Naam":"Antoon Catriestraat petanque","SportID":null,"NUMMER":52,"Wijk":"Drongen"}},{"type":"Feature","id":"Buurtsportinfrastructuur.60","geometry":{"type":"Point","coordinates":[3.7374308122971,51.054208034955]},"geometry_name":"Shape","properties":{"Sport":"Petanque","Status":"R","Naam":"Spaans Kasteelplein speelterrein","SportID":null,"NUMMER":75,"Wijk":"Macharius - Heirnis"}},{"type":"Feature","id":"Buurtsportinfrastructuur.61","geometry":{"type":"Point","coordinates":[3.7034707827186,51.070648095297]},"geometry_name":"Shape","properties":{"Sport":"Petanque","Status":"R","Naam":"Hyacintstraat petanque","SportID":null,"NUMMER":29,"Wijk":"Bloemekenswijk"}},{"type":"Feature","id":"Buurtsportinfrastructuur.62","geometry":{"type":"Point","coordinates":[3.7375134617948,51.051742227817]},"geometry_name":"Shape","properties":{"Sport":"Petanque","Status":"R","Naam":"Lousbergkaai petanque en fitness","SportID":null,"NUMMER":77,"Wijk":"Macharius - Heirnis"}},{"type":"Feature","id":"Buurtsportinfrastructuur.63","geometry":{"type":"Point","coordinates":[3.7401274281175,51.069484405095]},"geometry_name":"Shape","properties":{"Sport":"Petanque","Status":"R","Naam":"Scandinavi\u00ebstraat speelterrein","SportID":null,"NUMMER":98,"Wijk":"Muide - Meulestede - Afrikalaan"}},{"type":"Feature","id":"Buurtsportinfrastructuur.64","geometry":{"type":"Point","coordinates":[3.7622705297652,51.040855009828]},"geometry_name":"Shape","properties":{"Sport":"Petanque","Status":"R","Naam":"Meersemdries petanque","SportID":null,"NUMMER":60,"Wijk":"Gentbrugge"}},{"type":"Feature","id":"Buurtsportinfrastructuur.65","geometry":{"type":"Point","coordinates":[3.7924160736954,51.068884717965]},"geometry_name":"Shape","properties":{"Sport":"Petanque","Status":"R","Naam":"Leon Sarteelstraat speelterrein","SportID":null,"NUMMER":150,"Wijk":"Sint Amandsberg"}},{"type":"Feature","id":"Buurtsportinfrastructuur.66","geometry":{"type":"Point","coordinates":[3.7451138882248,51.056004702793]},"geometry_name":"Shape","properties":{"Sport":"Petanque","Status":"R","Naam":"Wasstraat speelterrein","SportID":null,"NUMMER":46,"Wijk":"Dampoort"}},{"type":"Feature","id":"Buurtsportinfrastructuur.67","geometry":{"type":"Point","coordinates":[3.7459700680305,51.071791249105]},"geometry_name":"Shape","properties":{"Sport":"Petanque","Status":"R","Naam":"Hogeweg petanque","SportID":null,"NUMMER":151,"Wijk":"Sint Amandsberg"}},{"type":"Feature","id":"Buurtsportinfrastructuur.68","geometry":{"type":"Point","coordinates":[3.7017829875386,51.058647336985]},"geometry_name":"Shape","properties":{"Sport":"Petanque","Status":"R","Naam":"Reinaertstraat Pierkespark","SportID":null,"NUMMER":41,"Wijk":"Brugse Poort - Rooigem"}},{"type":"Feature","id":"Buurtsportinfrastructuur.69","geometry":{"type":"Point","coordinates":[3.6146499829688,51.052865426206]},"geometry_name":"Shape","properties":{"Sport":"Petanque","Status":"R","Naam":"Adolf Lootensstraat petanque","SportID":null,"NUMMER":53,"Wijk":"Drongen"}},{"type":"Feature","id":"Buurtsportinfrastructuur.70","geometry":{"type":"Point","coordinates":[3.7235549394468,51.059175640886]},"geometry_name":"Shape","properties":{"Sport":"Petanque","Status":"R","Naam":"Kaatsspelplein petanque","SportID":null,"NUMMER":25,"Wijk":"Binnenstad"}},{"type":"Feature","id":"Buurtsportinfrastructuur.71","geometry":{"type":"Point","coordinates":[3.7643375747935,51.026796146784]},"geometry_name":"Shape","properties":{"Sport":"Petanque","Status":"R","Naam":"Pinguinstraat speelterrein","SportID":null,"NUMMER":91,"Wijk":"Moscou - Vogelhoek"}},{"type":"Feature","id":"Buurtsportinfrastructuur.72","geometry":{"type":"Point","coordinates":[3.7487540998096,51.044779088878]},"geometry_name":"Shape","properties":{"Sport":"Petanque","Status":"R","Naam":"Bassijnstraat speelterrein","SportID":null,"NUMMER":124,"Wijk":"Oud Gentbrugge"}},{"type":"Feature","id":"Buurtsportinfrastructuur.73","geometry":{"type":"Point","coordinates":[3.7293329419818,51.029737001332]},"geometry_name":"Shape","properties":{"Sport":"Petanque","Status":"R","Naam":"Ruststraat petanque","SportID":null,"NUMMER":109,"Wijk":"Nieuw Gent - UZ"}},{"type":"Feature","id":"Buurtsportinfrastructuur.74","geometry":{"type":"Point","coordinates":[3.7085300108554,51.040620520548]},"geometry_name":"Shape","properties":{"Sport":"Petanque","Status":"R","Naam":"Handbalstraat speelterrein","SportID":null,"NUMMER":170,"Wijk":"Stationsbuurt Noord"}},{"type":"Feature","id":"Buurtsportinfrastructuur.75","geometry":{"type":"Point","coordinates":[3.7648341176685,51.101481714886]},"geometry_name":"Shape","properties":{"Sport":"Petanque","Status":"R","Naam":"Gasthuisstraat petanque","SportID":null,"NUMMER":120,"Wijk":"Oostakker"}},{"type":"Feature","id":"Buurtsportinfrastructuur.76","geometry":{"type":"Point","coordinates":[3.6931164216648,51.042731737018]},"geometry_name":"Shape","properties":{"Sport":"Petanque","Status":"R","Naam":"Zuiderlaan Blaarmeersen waterkant en avonturenbos","SportID":null,"NUMMER":180,"Wijk":"Watersportbaan - Ekkergem"}},{"type":"Feature","id":"Buurtsportinfrastructuur.77","geometry":{"type":"Point","coordinates":[3.7390677852899,51.037636819326]},"geometry_name":"Shape","properties":{"Sport":"Petanque","Status":"R","Naam":"Franse Vaart petanque","SportID":null,"NUMMER":69,"Wijk":"Ledeberg"}},{"type":"Feature","id":"Buurtsportinfrastructuur.78","geometry":{"type":"Point","coordinates":[3.7315805843149,51.072643041393]},"geometry_name":"Shape","properties":{"Sport":"Petanque","Status":"R","Naam":"Roerstraat petanque","SportID":null,"NUMMER":101,"Wijk":"Muide - Meulestede - Afrikalaan"}},{"type":"Feature","id":"Buurtsportinfrastructuur.79","geometry":{"type":"Point","coordinates":[3.6408665249167,51.045566392725]},"geometry_name":"Shape","properties":{"Sport":"Petanque","Status":"R","Naam":"Keiskantstraat sporthal Keiskant","SportID":null,"NUMMER":50,"Wijk":"Drongen"}},{"type":"Feature","id":"Buurtsportinfrastructuur.80","geometry":{"type":"Point","coordinates":[3.7459607021953,51.049142750336]},"geometry_name":"Shape","properties":{"Sport":"Petanque","Status":"R","Naam":"Wolterslaan speelterrein","SportID":null,"NUMMER":47,"Wijk":"Dampoort"}},{"type":"Feature","id":"Buurtsportinfrastructuur.81","geometry":{"type":"Point","coordinates":[3.7535859625514,51.068142198658]},"geometry_name":"Shape","properties":{"Sport":"Petanque","Status":"R","Naam":"Biest speelterrein","SportID":null,"NUMMER":152,"Wijk":"Sint Amandsberg"}},{"type":"Feature","id":"Buurtsportinfrastructuur.82","geometry":{"type":"Point","coordinates":[3.6904265288359,51.068250737842]},"geometry_name":"Shape","properties":{"Sport":"Petanque","Status":"R","Naam":"Fluweelstraat speelterrein","SportID":null,"NUMMER":85,"Wijk":"Mariakerke"}},{"type":"Feature","id":"Buurtsportinfrastructuur.83","geometry":{"type":"Point","coordinates":[3.6741419565019,51.075608398283]},"geometry_name":"Shape","properties":{"Sport":"Petanque","Status":"R","Naam":"Mariakerkeplein domein Claeys Bou\u00fcaert binnen en buiten","SportID":null,"NUMMER":86,"Wijk":"Mariakerke"}},{"type":"Feature","id":"Buurtsportinfrastructuur.84","geometry":{"type":"Point","coordinates":[3.7112150285273,51.043500276366]},"geometry_name":"Shape","properties":{"Sport":"Petanque","Status":"R","Naam":"Neermeerskaai petanque","SportID":null,"NUMMER":181,"Wijk":"Watersportbaan - Ekkergem"}},{"type":"Feature","id":"Buurtsportinfrastructuur.85","geometry":{"type":"Point","coordinates":[3.7168606373557,51.060259018882]},"geometry_name":"Shape","properties":{"Sport":"Petanque","Status":"R","Naam":"Sint-Antoniuskaai petanque en fitness","SportID":null,"NUMMER":165,"Wijk":"Sluizeken - Tolhuis - Ham"}},{"type":"Feature","id":"Buurtsportinfrastructuur.86","geometry":{"type":"Point","coordinates":[3.7438690801592,51.051027850681]},"geometry_name":"Shape","properties":{"Sport":"Petanque","Status":"R","Naam":"Nijverheidsstraat Bijgaardepark","SportID":null,"NUMMER":48,"Wijk":"Dampoort"}},{"type":"Feature","id":"Buurtsportinfrastructuur.87","geometry":{"type":"Point","coordinates":[3.7214945599179,51.033755913536]},"geometry_name":"Shape","properties":{"Sport":"Petanque","Status":"R","Naam":"Lucas de Heerestraat speelterrein","SportID":null,"NUMMER":171,"Wijk":"Stationsbuurt Noord"}},{"type":"Feature","id":"Buurtsportinfrastructuur.88","geometry":{"type":"Point","coordinates":[3.7275672799347,51.066935190852]},"geometry_name":"Shape","properties":{"Sport":"Petanque","Status":"R","Naam":"Justus de Harduwijnlaan speelterrein","SportID":null,"NUMMER":166,"Wijk":"Sluizeken - Tolhuis - Ham"}},{"type":"Feature","id":"Buurtsportinfrastructuur.89","geometry":{"type":"Point","coordinates":[3.7280945999897,51.086838011188]},"geometry_name":"Shape","properties":{"Sport":"Petanque","Status":"R","Naam":"Meulesteedsesteenweg speelterrein","SportID":null,"NUMMER":99,"Wijk":"Muide - Meulestede - Afrikalaan"}},{"type":"Feature","id":"Buurtsportinfrastructuur.90","geometry":{"type":"Point","coordinates":[3.6592461724108,51.052190863079]},"geometry_name":"Shape","properties":{"Sport":"Petanque","Status":"R","Naam":"Klaverdries speelterrein","SportID":null,"NUMMER":54,"Wijk":"Drongen"}},{"type":"Feature","id":"Buurtsportinfrastructuur.91","geometry":{"type":"Point","coordinates":[3.7137450832193,51.020805271258]},"geometry_name":"Shape","properties":{"Sport":"Petanque","Status":"R","Naam":"Kikvorsstraat speelterrein","SportID":null,"NUMMER":108,"Wijk":"Nieuw Gent - UZ"}},{"type":"Feature","id":"Buurtsportinfrastructuur.92","geometry":{"type":"Point","coordinates":[3.7031644688848,51.046224514902]},"geometry_name":"Shape","properties":{"Sport":"Petanque","Status":"R","Naam":"Yachtdreef petanque","SportID":null,"NUMMER":182,"Wijk":"Watersportbaan - Ekkergem"}},{"type":"Feature","id":"Buurtsportinfrastructuur.93","geometry":{"type":"Point","coordinates":[3.7398950555131,51.051619329726]},"geometry_name":"Shape","properties":{"Sport":"Petanque","Status":"R","Naam":"Ossenstraat Rommelwaterpark","SportID":null,"NUMMER":76,"Wijk":"Macharius - Heirnis"}},{"type":"Feature","id":"Buurtsportinfrastructuur.94","geometry":{"type":"Point","coordinates":[3.6956259049368,51.058738935795]},"geometry_name":"Shape","properties":{"Sport":"Petanque","Status":"R","Naam":"Boerderijstraat Boerderijpark","SportID":null,"NUMMER":40,"Wijk":"Brugse Poort - Rooigem"}},{"type":"Feature","id":"Buurtsportinfrastructuur.95","geometry":{"type":"Point","coordinates":[3.6814943589803,51.046220026152]},"geometry_name":"Shape","properties":{"Sport":"Pingpong","Status":"R","Naam":"Zuiderlaan Blaarmeersen camping","SportID":null,"NUMMER":184,"Wijk":"Watersportbaan - Ekkergem"}},{"type":"Feature","id":"Buurtsportinfrastructuur.96","geometry":{"type":"Point","coordinates":[3.7644517228184,51.026718243738]},"geometry_name":"Shape","properties":{"Sport":"Pingpong","Status":"R","Naam":"Pinguinstraat speelterrein","SportID":null,"NUMMER":92,"Wijk":"Moscou - Vogelhoek"}},{"type":"Feature","id":"Buurtsportinfrastructuur.97","geometry":{"type":"Point","coordinates":[3.6849540280577,51.046860506204]},"geometry_name":"Shape","properties":{"Sport":"Skate","Status":"R","Naam":"Zuiderlaan Blaarmeersen skatezone","SportID":null,"NUMMER":185,"Wijk":"Watersportbaan - Ekkergem"}},{"type":"Feature","id":"Buurtsportinfrastructuur.98","geometry":{"type":"Point","coordinates":[3.7071586687938,51.02957515532]},"geometry_name":"Shape","properties":{"Sport":"Skate","Status":"R","Naam":"Flamingostraat speelterrein","SportID":null,"NUMMER":175,"Wijk":"Stationsbuurt Zuid"}},{"type":"Feature","id":"Buurtsportinfrastructuur.99","geometry":{"type":"Point","coordinates":[3.731307754285,51.046267715994]},"geometry_name":"Shape","properties":{"Sport":"Skate","Status":"R","Naam":"Zuidparklaan Koning Albertpark","SportID":null,"NUMMER":26,"Wijk":"Binnenstad"}},{"type":"Feature","id":"Buurtsportinfrastructuur.100","geometry":{"type":"Point","coordinates":[3.774348503626,51.066631992633]},"geometry_name":"Shape","properties":{"Sport":"Skate","Status":"R","Naam":"Heiveldstraat bibliotheek speelterrein","SportID":null,"NUMMER":153,"Wijk":"Sint Amandsberg"}},{"type":"Feature","id":"Buurtsportinfrastructuur.101","geometry":{"type":"Point","coordinates":[3.6422170287586,51.045339256384]},"geometry_name":"Shape","properties":{"Sport":"Skate","Status":"R","Naam":"Keiskantstraat sporthal Keiskant","SportID":null,"NUMMER":55,"Wijk":"Drongen"}},{"type":"Feature","id":"Buurtsportinfrastructuur.102","geometry":{"type":"Point","coordinates":[3.7417968536483,51.042556636822]},"geometry_name":"Shape","properties":{"Sport":"Skate","Status":"R","Naam":"Brusselsesteenweg Keizerpark","SportID":null,"NUMMER":125,"Wijk":"Oud Gentbrugge"}},{"type":"Feature","id":"Buurtsportinfrastructuur.103","geometry":{"type":"Point","coordinates":[3.8148296931094,51.156700529545]},"geometry_name":"Shape","properties":{"Sport":"Skate","Status":"R","Naam":"Georges De Baetsplaats speelterrein","SportID":null,"NUMMER":62,"Wijk":"Kanaaldorpen en -zone"}},{"type":"Feature","id":"Buurtsportinfrastructuur.104","geometry":{"type":"Point","coordinates":[3.7173699551724,51.021798936923]},"geometry_name":"Shape","properties":{"Sport":"Skate","Status":"R","Naam":"Rerum Novarumplein speelterrein","SportID":null,"NUMMER":111,"Wijk":"Nieuw Gent - UZ"}},{"type":"Feature","id":"Buurtsportinfrastructuur.105","geometry":{"type":"Point","coordinates":[3.7137098665652,51.065018781971]},"geometry_name":"Shape","properties":{"Sport":"Skate","Status":"R","Naam":"Muishondstraat De Site","SportID":null,"NUMMER":132,"Wijk":"Rabot - Blaisantvest"}},{"type":"Feature","id":"Buurtsportinfrastructuur.106","geometry":{"type":"Point","coordinates":[3.7585704445684,51.028062981633]},"geometry_name":"Shape","properties":{"Sport":"Buurtvoetbal","Status":"R","Naam":"Jules de Saint-Genoislaan De Porre","SportID":null,"NUMMER":87,"Wijk":"Moscou - Vogelhoek"}},{"type":"Feature","id":"Buurtsportinfrastructuur.107","geometry":{"type":"Point","coordinates":[3.7349162167127,51.05926603604]},"geometry_name":"Shape","properties":{"Sport":"Buurtvoetbal","Status":"R","Naam":"Zondernaamstraat speelterrein","SportID":null,"NUMMER":160,"Wijk":"Sluizeken - Tolhuis - Ham"}},{"type":"Feature","id":"Buurtsportinfrastructuur.108","geometry":{"type":"Point","coordinates":[3.7536842032092,51.062995318178]},"geometry_name":"Shape","properties":{"Sport":"Buurtvoetbal","Status":"R","Naam":"Heiveldstraat Potuitpark","SportID":null,"NUMMER":139,"Wijk":"Sint Amandsberg"}},{"type":"Feature","id":"Buurtsportinfrastructuur.109","geometry":{"type":"Point","coordinates":[3.8008198850436,51.074852346618]},"geometry_name":"Shape","properties":{"Sport":"Buurtvoetbal","Status":"R","Naam":"Orchideestraat orchideepark","SportID":null,"NUMMER":140,"Wijk":"Sint Amandsberg"}},{"type":"Feature","id":"Buurtsportinfrastructuur.110","geometry":{"type":"Point","coordinates":[3.6973713270423,51.051052748003]},"geometry_name":"Shape","properties":{"Sport":"Buurtvoetbal","Status":"R","Naam":"Landingsplein speelterrein","SportID":null,"NUMMER":37,"Wijk":"Brugse Poort - Rooigem"}},{"type":"Feature","id":"Buurtsportinfrastructuur.111","geometry":{"type":"Point","coordinates":[3.7593171448938,51.058463261411]},"geometry_name":"Shape","properties":{"Sport":"Buurtvoetbal","Status":"R","Naam":"Rozebroekslag S&R sporthalcomplex Rozebroeken","SportID":null,"NUMMER":137,"Wijk":"Sint Amandsberg"}},{"type":"Feature","id":"Buurtsportinfrastructuur.112","geometry":{"type":"Point","coordinates":[3.7274209839008,51.01811778679]},"geometry_name":"Shape","properties":{"Sport":"Buurtvoetbal","Status":"R","Naam":"Steenakker Henri Storyplein","SportID":null,"NUMMER":105,"Wijk":"Nieuw Gent - UZ"}},{"type":"Feature","id":"Buurtsportinfrastructuur.113","geometry":{"type":"Point","coordinates":[3.7222103986217,51.076500376966]},"geometry_name":"Shape","properties":{"Sport":"Buurtvoetbal","Status":"R","Naam":"Limbastraat speelterrein","SportID":null,"NUMMER":190,"Wijk":"Wondelgem"}},{"type":"Feature","id":"Buurtsportinfrastructuur.114","geometry":{"type":"Point","coordinates":[3.7290671942697,51.07295657067]},"geometry_name":"Shape","properties":{"Sport":"Buurtvoetbal","Status":"R","Naam":"Makelaarsstraat speelterrein","SportID":null,"NUMMER":93,"Wijk":"Muide - Meulestede - Afrikalaan"}},{"type":"Feature","id":"Buurtsportinfrastructuur.115","geometry":{"type":"Point","coordinates":[3.7533005417345,51.073849987835]},"geometry_name":"Shape","properties":{"Sport":"Buurtvoetbal","Status":"R","Naam":"Sleutelbloemstraat speelterrein","SportID":null,"NUMMER":141,"Wijk":"Sint Amandsberg"}},{"type":"Feature","id":"Buurtsportinfrastructuur.116","geometry":{"type":"Point","coordinates":[3.7674651061676,51.104281782686]},"geometry_name":"Shape","properties":{"Sport":"Buurtvoetbal","Status":"R","Naam":"Ooistraat speelterrein","SportID":null,"NUMMER":115,"Wijk":"Oostakker"}},{"type":"Feature","id":"Buurtsportinfrastructuur.117","geometry":{"type":"Point","coordinates":[3.7278604810603,51.061519358667]},"geometry_name":"Shape","properties":{"Sport":"Buurtvoetbal","Status":"R","Naam":"Godshuishammeke speelterrein","SportID":null,"NUMMER":158,"Wijk":"Sluizeken - Tolhuis - Ham"}},{"type":"Feature","id":"Buurtsportinfrastructuur.118","geometry":{"type":"Point","coordinates":[3.7395609819404,51.069543366234]},"geometry_name":"Shape","properties":{"Sport":"Buurtvoetbal","Status":"R","Naam":"Scandinavi\u00ebstraat speelterrein","SportID":null,"NUMMER":94,"Wijk":"Muide - Meulestede - Afrikalaan"}},{"type":"Feature","id":"Buurtsportinfrastructuur.119","geometry":{"type":"Point","coordinates":[3.7925555596012,51.068899669567]},"geometry_name":"Shape","properties":{"Sport":"Buurtvoetbal","Status":"R","Naam":"Leon Sarteelstraat speelterrein","SportID":null,"NUMMER":142,"Wijk":"Sint Amandsberg"}},{"type":"Feature","id":"Buurtsportinfrastructuur.120","geometry":{"type":"Point","coordinates":[3.7451787753344,51.056233372913]},"geometry_name":"Shape","properties":{"Sport":"Buurtvoetbal","Status":"R","Naam":"Wasstraat speelterrein","SportID":null,"NUMMER":44,"Wijk":"Dampoort"}},{"type":"Feature","id":"Buurtsportinfrastructuur.121","geometry":{"type":"Point","coordinates":[3.7306394463412,51.068949159915]},"geometry_name":"Shape","properties":{"Sport":"Buurtvoetbal","Status":"R","Naam":"Bevelandstraat speelterrein","SportID":null,"NUMMER":161,"Wijk":"Sluizeken - Tolhuis - Ham"}},{"type":"Feature","id":"Buurtsportinfrastructuur.122","geometry":{"type":"Point","coordinates":[3.7646779051321,51.026726538539]},"geometry_name":"Shape","properties":{"Sport":"Buurtvoetbal","Status":"R","Naam":"Pinguinstraat speelterrein","SportID":null,"NUMMER":88,"Wijk":"Moscou - Vogelhoek"}},{"type":"Feature","id":"Buurtsportinfrastructuur.123","geometry":{"type":"Point","coordinates":[3.7495267021579,51.02925734013]},"geometry_name":"Shape","properties":{"Sport":"Buurtvoetbal","Status":"R","Naam":"Adolf Papeleupark speelterrein","SportID":null,"NUMMER":66,"Wijk":"Ledeberg"}},{"type":"Feature","id":"Buurtsportinfrastructuur.124","geometry":{"type":"Point","coordinates":[3.686354516857,51.084740879006]},"geometry_name":"Shape","properties":{"Sport":"Buurtvoetbal","Status":"R","Naam":"Welpengang speelterrein","SportID":null,"NUMMER":80,"Wijk":"Mariakerke"}},{"type":"Feature","id":"Buurtsportinfrastructuur.125","geometry":{"type":"Point","coordinates":[3.7086503356962,51.077356255074]},"geometry_name":"Shape","properties":{"Sport":"Buurtvoetbal","Status":"R","Naam":"Zandstraat speelterrein","SportID":null,"NUMMER":191,"Wijk":"Wondelgem"}},{"type":"Feature","id":"Buurtsportinfrastructuur.126","geometry":{"type":"Point","coordinates":[3.7750930551812,51.06670709294]},"geometry_name":"Shape","properties":{"Sport":"Buurtvoetbal","Status":"R","Naam":"Heiveldstraat bibliotheek speelterrein","SportID":null,"NUMMER":138,"Wijk":"Sint Amandsberg"}},{"type":"Feature","id":"Buurtsportinfrastructuur.127","geometry":{"type":"Point","coordinates":[3.7142857809855,51.091135760652]},"geometry_name":"Shape","properties":{"Sport":"Buurtvoetbal","Status":"R","Naam":"Waterlelielaan speelterrein","SportID":null,"NUMMER":192,"Wijk":"Wondelgem"}},{"type":"Feature","id":"Buurtsportinfrastructuur.128","geometry":{"type":"Point","coordinates":[3.6414239906359,51.045384314153]},"geometry_name":"Shape","properties":{"Sport":"Buurtvoetbal","Status":"R","Naam":"Keiskantstraat sporthal Keiskant","SportID":null,"NUMMER":49,"Wijk":"Drongen"}},{"type":"Feature","id":"Buurtsportinfrastructuur.129","geometry":{"type":"Point","coordinates":[3.6759265783915,51.074768474383]},"geometry_name":"Shape","properties":{"Sport":"Buurtvoetbal","Status":"R","Naam":"Mariakerkeplein domein Claeys Bou\u00fcaert buiten","SportID":null,"NUMMER":81,"Wijk":"Mariakerke"}},{"type":"Feature","id":"Buurtsportinfrastructuur.130","geometry":{"type":"Point","coordinates":[3.7461502161776,51.04893682874]},"geometry_name":"Shape","properties":{"Sport":"Buurtvoetbal","Status":"R","Naam":"Wolterslaan speelterrein","SportID":null,"NUMMER":45,"Wijk":"Dampoort"}},{"type":"Feature","id":"Buurtsportinfrastructuur.131","geometry":{"type":"Point","coordinates":[3.7288228327495,51.076696317737]},"geometry_name":"Shape","properties":{"Sport":"Buurtvoetbal","Status":"R","Naam":"Londenstraat voorhavenpark","SportID":null,"NUMMER":95,"Wijk":"Muide - Meulestede - Afrikalaan"}},{"type":"Feature","id":"Buurtsportinfrastructuur.132","geometry":{"type":"Point","coordinates":[3.6906732717899,51.068416267001]},"geometry_name":"Shape","properties":{"Sport":"Buurtvoetbal","Status":"R","Naam":"Fluweelstraat speelterrein","SportID":null,"NUMMER":82,"Wijk":"Mariakerke"}},{"type":"Feature","id":"Buurtsportinfrastructuur.133","geometry":{"type":"Point","coordinates":[3.7407542078441,51.035078735866]},"geometry_name":"Shape","properties":{"Sport":"Buurtvoetbal","Status":"R","Naam":"Centrumplein speelterrein","SportID":null,"NUMMER":67,"Wijk":"Ledeberg"}},{"type":"Feature","id":"Buurtsportinfrastructuur.134","geometry":{"type":"Point","coordinates":[3.7190919195708,51.037661162367]},"geometry_name":"Shape","properties":{"Sport":"Pannavoetbal","Status":"R","Naam":"Koning Leopold II laan Citadelpark","SportID":"01","NUMMER":169,"Wijk":"Stationsbuurt Noord"}},{"type":"Feature","id":"Buurtsportinfrastructuur.135","geometry":{"type":"Point","coordinates":[3.7530555927161,51.045428059906]},"geometry_name":"Shape","properties":{"Sport":"Buurtvoetbal","Status":"R","Naam":"Kerkstraat  Arbedpark","SportID":null,"NUMMER":123,"Wijk":"Oud Gentbrugge"}},{"type":"Feature","id":"Buurtsportinfrastructuur.136","geometry":{"type":"Point","coordinates":[3.7113963588573,51.067225693547]},"geometry_name":"Shape","properties":{"Sport":"Buurtvoetbal","Status":"R","Naam":"Roggestraat Bloemekenspark","SportID":null,"NUMMER":27,"Wijk":"Bloemekenswijk"}},{"type":"Feature","id":"Buurtsportinfrastructuur.137","geometry":{"type":"Point","coordinates":[3.7585626265305,51.084558396935]},"geometry_name":"Shape","properties":{"Sport":"Buurtvoetbal","Status":"R","Naam":"Gentstraat speelterrein","SportID":null,"NUMMER":116,"Wijk":"Oostakker"}},{"type":"Feature","id":"Buurtsportinfrastructuur.138","geometry":{"type":"Point","coordinates":[3.7692787768784,51.037098567384]},"geometry_name":"Shape","properties":{"Sport":"Buurtvoetbal","Status":"R","Naam":"Driebeekstraat sporthal Driebeek","SportID":null,"NUMMER":57,"Wijk":"Gentbrugge"}},{"type":"Feature","id":"Buurtsportinfrastructuur.139","geometry":{"type":"Point","coordinates":[3.7692426268748,51.067585276804]},"geometry_name":"Shape","properties":{"Sport":"Buurtvoetbal","Status":"R","Naam":"Draverstraat speelterrein","SportID":null,"NUMMER":143,"Wijk":"Sint Amandsberg"}},{"type":"Feature","id":"Buurtsportinfrastructuur.140","geometry":{"type":"Point","coordinates":[3.6796516825673,51.079202790202]},"geometry_name":"Shape","properties":{"Sport":"Buurtvoetbal","Status":"R","Naam":"Groenestaakstraat P van Thieghem de Ten Berghepark","SportID":null,"NUMMER":83,"Wijk":"Mariakerke"}},{"type":"Feature","id":"Buurtsportinfrastructuur.141","geometry":{"type":"Point","coordinates":[3.6658328006353,51.08087005076]},"geometry_name":"Shape","properties":{"Sport":"Buurtvoetbal","Status":"R","Naam":"Venusstraat speelterrein","SportID":null,"NUMMER":84,"Wijk":"Mariakerke"}},{"type":"Feature","id":"Buurtsportinfrastructuur.142","geometry":{"type":"Point","coordinates":[3.7279045793576,51.086341135459]},"geometry_name":"Shape","properties":{"Sport":"Buurtvoetbal","Status":"R","Naam":"Meulesteedsesteenweg speelterrein","SportID":null,"NUMMER":96,"Wijk":"Muide - Meulestede - Afrikalaan"}},{"type":"Feature","id":"Buurtsportinfrastructuur.143","geometry":{"type":"Point","coordinates":[3.7039950898241,51.060159780161]},"geometry_name":"Shape","properties":{"Sport":"Buurtvoetbal","Status":"R","Naam":"Emilius Seghersplein Luizengevecht","SportID":null,"NUMMER":38,"Wijk":"Brugse Poort - Rooigem"}},{"type":"Feature","id":"Buurtsportinfrastructuur.144","geometry":{"type":"Point","coordinates":[3.7362762310186,51.035480159839]},"geometry_name":"Shape","properties":{"Sport":"Buurtvoetbal","Status":"R","Naam":"Gaston Crommenlaan E3-plein","SportID":null,"NUMMER":65,"Wijk":"Ledeberg"}},{"type":"Feature","id":"Buurtsportinfrastructuur.145","geometry":{"type":"Point","coordinates":[3.673895709418,51.022458564127]},"geometry_name":"Shape","properties":{"Sport":"Buurtvoetbal","Status":"R","Naam":"Tijgerlelielaan speelterrein","SportID":null,"NUMMER":155,"Wijk":"Sint Denijs Westrem"}},{"type":"Feature","id":"Buurtsportinfrastructuur.146","geometry":{"type":"Point","coordinates":[3.7066505529231,51.063170564112]},"geometry_name":"Shape","properties":{"Sport":"Buurtvoetbal","Status":"R","Naam":"Gebroeders de Smetstraat speelterrein","SportID":null,"NUMMER":128,"Wijk":"Rabot - Blaisantvest"}},{"type":"Feature","id":"Buurtsportinfrastructuur.147","geometry":{"type":"Point","coordinates":[3.7498113073045,51.072342961876]},"geometry_name":"Shape","properties":{"Sport":"Buurtvoetbal","Status":"R","Naam":"Sint Bernadettestraat La Sapiniere","SportID":null,"NUMMER":144,"Wijk":"Sint Amandsberg"}},{"type":"Feature","id":"Buurtsportinfrastructuur.148","geometry":{"type":"Point","coordinates":[3.7398354873283,51.051840204414]},"geometry_name":"Shape","properties":{"Sport":"Buurtvoetbal","Status":"R","Naam":"Ossenstraat Rommelwaterpark","SportID":null,"NUMMER":73,"Wijk":"Macharius - Heirnis"}},{"type":"Feature","id":"Buurtsportinfrastructuur.149","geometry":{"type":"Point","coordinates":[3.7680256755661,51.070991998854]},"geometry_name":"Shape","properties":{"Sport":"Buurtvoetbal","Status":"R","Naam":"Esperantostraat speelterrein","SportID":null,"NUMMER":145,"Wijk":"Sint Amandsberg"}},{"type":"Feature","id":"Buurtsportinfrastructuur.150","geometry":{"type":"Point","coordinates":[3.6957287467655,51.065874921554]},"geometry_name":"Shape","properties":{"Sport":"Buurtvoetbal","Status":"R","Naam":"Wielewaalstraat Wielewaalpark","SportID":null,"NUMMER":39,"Wijk":"Brugse Poort - Rooigem"}},{"type":"Feature","id":"Buurtsportinfrastructuur.151","geometry":{"type":"Point","coordinates":[3.7175418226491,51.021642909915]},"geometry_name":"Shape","properties":{"Sport":"Buurtvoetbal","Status":"R","Naam":"Kikvorsstraat, Rerum Novarumplein speelterrein","SportID":null,"NUMMER":106,"Wijk":"Nieuw Gent - UZ"}},{"type":"Feature","id":"Buurtsportinfrastructuur.152","geometry":{"type":"Point","coordinates":[3.7247124779792,51.063886787437]},"geometry_name":"Shape","properties":{"Sport":"Buurtvoetbal","Status":"R","Naam":"Tolhuislaan sporthal Tolhuis","SportID":null,"NUMMER":159,"Wijk":"Sluizeken - Tolhuis - Ham"}},{"type":"Feature","id":"Buurtsportinfrastructuur.153","geometry":{"type":"Point","coordinates":[3.695963239394,51.058901403777]},"geometry_name":"Shape","properties":{"Sport":"Buurtvoetbal","Status":"R","Naam":"Boerderijstraat Boerderijpark","SportID":null,"NUMMER":35,"Wijk":"Brugse Poort - Rooigem"}},{"type":"Feature","id":"Buurtsportinfrastructuur.154","geometry":{"type":"Point","coordinates":[3.7159144490535,51.063742469205]},"geometry_name":"Shape","properties":{"Sport":"Buurtvoetbal","Status":"R","Naam":"Opge\u00ebistenlaan Rabotpark","SportID":null,"NUMMER":129,"Wijk":"Rabot - Blaisantvest"}},{"type":"Feature","id":"Buurtsportinfrastructuur.155","geometry":{"type":"Point","coordinates":[3.7639515211052,51.092985347618]},"geometry_name":"Shape","properties":{"Sport":"Buurtvoetbal","Status":"R","Naam":"Wolfputstraat sporthal Wolfput","SportID":null,"NUMMER":114,"Wijk":"Oostakker"}},{"type":"Feature","id":"Buurtsportinfrastructuur.156","geometry":{"type":"Point","coordinates":[3.7046775902511,51.055366761387]},"geometry_name":"Shape","properties":{"Sport":"Buurtvoetbal","Status":"R","Naam":"Nieuwewandeling Groenevalleipark","SportID":null,"NUMMER":36,"Wijk":"Brugse Poort - Rooigem"}},{"type":"Feature","id":"Buurtsportinfrastructuur.157","geometry":{"type":"Point","coordinates":[3.7628271088472,51.066895099181]},"geometry_name":"Shape","properties":{"Sport":"Fitnesstoestellen","Status":"R","Naam":"Antwerpsesteenweg, Woonzorgcentrum Het Heiveld","SportID":"07","NUMMER":146,"Wijk":"Sint Amandsberg"}},{"type":"Feature","id":"Buurtsportinfrastructuur.158","geometry":{"type":"Point","coordinates":[3.6822625919231,51.046682443074]},"geometry_name":"Shape","properties":{"Sport":"Petanque","Status":"R","Naam":"Blaarmeersen tennishal, Zuiderlaan","SportID":"08","NUMMER":183,"Wijk":"Watersportbaan - Ekkergem"}},{"type":"Feature","id":"Buurtsportinfrastructuur.159","geometry":{"type":"Point","coordinates":[3.7139249726516,51.057394000022]},"geometry_name":"Shape","properties":{"Sport":"Petanque","Status":"R","Naam":"Rabotstraat","SportID":"09","NUMMER":56,"Wijk":"Elisabethbegijnhof - Papegaai"}},{"type":"Feature","id":"Buurtsportinfrastructuur.160","geometry":{"type":"Point","coordinates":[3.7482074677727,51.029534316048]},"geometry_name":"Shape","properties":{"Sport":"Petanque","Status":"R","Naam":"Adolf Papeleupark","SportID":"10","NUMMER":70,"Wijk":"Ledeberg"}},{"type":"Feature","id":"Buurtsportinfrastructuur.161","geometry":{"type":"Point","coordinates":[3.7291829260243,51.070845343313]},"geometry_name":"Shape","properties":{"Sport":"Petanque","Status":"R","Naam":"Terneuzenlaan","SportID":"11","NUMMER":102,"Wijk":"Muide - Meulestede - Afrikalaan"}},{"type":"Feature","id":"Buurtsportinfrastructuur.162","geometry":{"type":"Point","coordinates":[3.7256081342501,51.018235277543]},"geometry_name":"Shape","properties":{"Sport":"Petanque","Status":"R","Naam":"Muilaardstraat, Henri Storyplein","SportID":"12","NUMMER":110,"Wijk":"Nieuw Gent - UZ"}},{"type":"Feature","id":"Buurtsportinfrastructuur.163","geometry":{"type":"Point","coordinates":[3.7135034265264,51.0613387616]},"geometry_name":"Shape","properties":{"Sport":"Petanque","Status":"R","Naam":"Opge\u00ebistenlaan","SportID":"13","NUMMER":131,"Wijk":"Rabot - Blaisantvest"}},{"type":"Feature","id":"Buurtsportinfrastructuur.164","geometry":{"type":"Point","coordinates":[3.7189420374623,51.038062320512]},"geometry_name":"Shape","properties":{"Sport":"Pingpong","Status":"R","Naam":"Koning Leopold II laan, Citadelpark","SportID":"14","NUMMER":172,"Wijk":"Stationsbuurt Noord"}},{"type":"Feature","id":"Buurtsportinfrastructuur.165","geometry":{"type":"Point","coordinates":[3.7152384254797,51.075799146928]},"geometry_name":"Shape","properties":{"Sport":"Skate","Status":"R","Naam":"Dracenastraat, openluchtcentrum Jan Yoens","SportID":"15","NUMMER":30,"Wijk":"Bloemekenswijk"}},{"type":"Feature","id":"Buurtsportinfrastructuur.166","geometry":{"type":"Point","coordinates":[3.7012277262851,51.046320547395]},"geometry_name":"Shape","properties":{"Sport":"Buurtvoetbal","Status":"R","Naam":"Europalaan","SportID":"16","NUMMER":179,"Wijk":"Watersportbaan - Ekkergem"}},{"type":"Feature","id":"Buurtsportinfrastructuur.167","geometry":{"type":"Point","coordinates":[3.7014695859972,51.045973446937]},"geometry_name":"Shape","properties":{"Sport":"Basketbal","Status":"R","Naam":"Europalaan","SportID":"17","NUMMER":178,"Wijk":"Watersportbaan - Ekkergem"}},{"type":"Feature","id":"Buurtsportinfrastructuur.168","geometry":{"type":"Point","coordinates":[3.7011265759841,51.04602958369]},"geometry_name":"Shape","properties":{"Sport":"Volleybal","Status":"R","Naam":"Europalaan","SportID":"18","NUMMER":186,"Wijk":"Watersportbaan - Ekkergem"}},{"type":"Feature","id":"Buurtsportinfrastructuur.169","geometry":{"type":"Point","coordinates":[3.7055331852535,51.044929308312]},"geometry_name":"Shape","properties":{"Sport":"Volleybal","Status":"R","Naam":"Verenigde Natieslaan","SportID":"19","NUMMER":187,"Wijk":"Watersportbaan - Ekkergem"}},{"type":"Feature","id":"Buurtsportinfrastructuur.170","geometry":{"type":"Point","coordinates":[3.7143542667461,51.06506760185]},"geometry_name":"Shape","properties":{"Sport":"Skate","Status":"R","Naam":"Gasmeterlaan","SportID":"20","NUMMER":133,"Wijk":"Rabot - Blaisantvest"}},{"type":"Feature","id":"Buurtsportinfrastructuur.171","geometry":{"type":"Point","coordinates":[3.6896483740008,51.064864560767]},"geometry_name":"Shape","properties":{"Sport":"Petanque","Status":"A","Naam":"Malpertuusplein","SportID":"21","NUMMER":4,"Wijk":"Brugse Poort - Rooigem"}},{"type":"Feature","id":"Buurtsportinfrastructuur.172","geometry":{"type":"Point","coordinates":[3.7804649051218,51.069953990003]},"geometry_name":"Shape","properties":{"Sport":"Petanque","Status":"A","Naam":"Camiel D'hav\u00e9straat","SportID":"22","NUMMER":19,"Wijk":"Sint Amandsberg"}},{"type":"Feature","id":"Buurtsportinfrastructuur.173","geometry":{"type":"Point","coordinates":[3.7697799532636,51.1035234701]},"geometry_name":"Shape","properties":{"Sport":"Petanque","Status":"A","Naam":"Ramstraat","SportID":"23","NUMMER":15,"Wijk":"Oostakker"}},{"type":"Feature","id":"Buurtsportinfrastructuur.174","geometry":{"type":"Point","coordinates":[3.7680729161703,51.071091154522]},"geometry_name":"Shape","properties":{"Sport":"Petanque","Status":"A","Naam":"Esperantostraat","SportID":"24","NUMMER":20,"Wijk":"Sint Amandsberg"}},{"type":"Feature","id":"Buurtsportinfrastructuur.175","geometry":{"type":"Point","coordinates":[3.7421573808095,51.042610153615]},"geometry_name":"Shape","properties":{"Sport":"Pingpong","Status":"A","Naam":"Brusselsesteenweg, Keizerpark","SportID":"26","NUMMER":16,"Wijk":"Oud Gentbrugge"}},{"type":"Feature","id":"Buurtsportinfrastructuur.176","geometry":{"type":"Point","coordinates":[3.7342335087749,51.04253899782]},"geometry_name":"Shape","properties":{"Sport":"Pingpong","Status":"A","Naam":"Zuidparklaan, Zuidpark","SportID":"27","NUMMER":1,"Wijk":"Binnenstad"}},{"type":"Feature","id":"Buurtsportinfrastructuur.177","geometry":{"type":"Point","coordinates":[3.7303811627307,51.058363179256]},"geometry_name":"Shape","properties":{"Sport":"Pingpong","Status":"A","Naam":"Baudelohof","SportID":"28","NUMMER":2,"Wijk":"Binnenstad"}},{"type":"Feature","id":"Buurtsportinfrastructuur.178","geometry":{"type":"Point","coordinates":[3.6892864400779,51.04859422003]},"geometry_name":"Shape","properties":{"Sport":"Pingpong","Status":"A","Naam":"Zuiderlaan, Huis van de Sport","SportID":"29","NUMMER":23,"Wijk":"Watersportbaan - Ekkergem"}},{"type":"Feature","id":"Buurtsportinfrastructuur.179","geometry":{"type":"Point","coordinates":[3.6703668556907,51.024269725982]},"geometry_name":"Shape","properties":{"Sport":"Buurtvoetbal","Status":"A","Naam":"Vennestraat","SportID":"30","NUMMER":22,"Wijk":"Sint Denijs Westrem"}},{"type":"Feature","id":"Buurtsportinfrastructuur.180","geometry":{"type":"Point","coordinates":[3.7782562685367,51.043066265528]},"geometry_name":"Shape","properties":{"Sport":"Buurtvoetbal","Status":"A","Naam":"Gentbrugse Meersen, Oude Scheldeweg (five-a-sidevoetbal)","SportID":"31","NUMMER":5,"Wijk":"Gentbrugge"}},{"type":"Feature","id":"Buurtsportinfrastructuur.181","geometry":{"type":"Point","coordinates":[3.7595251327298,51.058499843399]},"geometry_name":"Shape","properties":{"Sport":"Pingpong","Status":"A","Naam":"Rozebroekslag, park Rozebroeken","SportID":"32","NUMMER":21,"Wijk":"Sint Amandsberg"}},{"type":"Feature","id":"Buurtsportinfrastructuur.182","geometry":{"type":"Point","coordinates":[3.729339022678,51.072904163069]},"geometry_name":"Shape","properties":{"Sport":"Fitnesstoestellen","Status":"A","Naam":"Loodsenstraat","SportID":"34","NUMMER":12,"Wijk":"Muide - Meulestede - Afrikalaan"}},{"type":"Feature","id":"Buurtsportinfrastructuur.183","geometry":{"type":"Point","coordinates":[3.705634958087,51.063209573365]},"geometry_name":"Shape","properties":{"Sport":"Fitnesstoestellen","Status":"A","Naam":"Gebroeders De Smetstraat, El Paso","SportID":"35","NUMMER":17,"Wijk":"Rabot - Blaisantvest"}},{"type":"Feature","id":"Buurtsportinfrastructuur.184","geometry":{"type":"Point","coordinates":[3.7061645311167,51.062994923551]},"geometry_name":"Shape","properties":{"Sport":"Street workout","Status":"A","Naam":"Gebroeders De Smetstraat, El Paso","SportID":"36","NUMMER":18,"Wijk":"Rabot - Blaisantvest"}},{"type":"Feature","id":"Buurtsportinfrastructuur.185","geometry":{"type":"Point","coordinates":[3.7779098116878,51.042651783957]},"geometry_name":"Shape","properties":{"Sport":"Street workout","Status":"A","Naam":"Gentbrugse Meersen, Oude Scheldeweg","SportID":"37","NUMMER":8,"Wijk":"Gentbrugge"}},{"type":"Feature","id":"Buurtsportinfrastructuur.186","geometry":{"type":"Point","coordinates":[3.778801006925,51.042758550107]},"geometry_name":"Shape","properties":{"Sport":"Fitnesstoestellen","Status":"A","Naam":"Gentbrugse Meersen, Oude Scheldeweg","SportID":"38","NUMMER":7,"Wijk":"Gentbrugge"}},{"type":"Feature","id":"Buurtsportinfrastructuur.187","geometry":{"type":"Point","coordinates":[3.7288497229191,51.076423697565]},"geometry_name":"Shape","properties":{"Sport":"Fitnesstoestellen","Status":"A","Naam":"Londenstraat","SportID":"39","NUMMER":11,"Wijk":"Muide - Meulestede - Afrikalaan"}},{"type":"Feature","id":"Buurtsportinfrastructuur.188","geometry":{"type":"Point","coordinates":[3.7290319515644,51.076310861034]},"geometry_name":"Shape","properties":{"Sport":"Basketbal","Status":"A","Naam":"Londenstraat","SportID":"40","NUMMER":10,"Wijk":"Muide - Meulestede - Afrikalaan"}},{"type":"Feature","id":"Buurtsportinfrastructuur.189","geometry":{"type":"Point","coordinates":[3.7265195568525,51.060221374589]},"geometry_name":"Shape","properties":{"Sport":"Street workout","Status":"A","Naam":"Willem De Beerpark, Willem De Beersteeg","SportID":"41","NUMMER":3,"Wijk":"Binnenstad"}},{"type":"Feature","id":"Buurtsportinfrastructuur.190","geometry":{"type":"Point","coordinates":[3.7153958067242,51.02140953661]},"geometry_name":"Shape","properties":{"Sport":"Pannavoetbal","Status":"A","Naam":"Kikvorsstraat, Nieuw Gent","SportID":"42","NUMMER":13,"Wijk":"Nieuw Gent - UZ"}},{"type":"Feature","id":"Buurtsportinfrastructuur.191","geometry":{"type":"Point","coordinates":[3.7140866190971,51.06463838733]},"geometry_name":"Shape","properties":{"Sport":"Buurtvoetbal","Status":"R","Naam":"Muishondstraat","SportID":null,"NUMMER":130,"Wijk":"Rabot - Blaisantvest"}},{"type":"Feature","id":"Buurtsportinfrastructuur.192","geometry":{"type":"Point","coordinates":[3.69675686232,51.046763876751]},"geometry_name":"Shape","properties":{"Sport":"Volleybal","Status":"R","Naam":"Belv\u00e9d\u00e8reweg","SportID":"43","NUMMER":188,"Wijk":"Watersportbaan - Ekkergem"}},{"type":"Feature","id":"Buurtsportinfrastructuur.193","geometry":{"type":"Point","coordinates":[3.736273274663,51.035362007231]},"geometry_name":"Shape","properties":{"Sport":"Pingpong","Status":"R","Naam":"Gaston Crommenlaan E3-plein","SportID":"44","NUMMER":71,"Wijk":"Ledeberg"}},{"type":"Feature","id":"Buurtsportinfrastructuur.194","geometry":{"type":"Point","coordinates":[3.7582341746148,51.027896246018]},"geometry_name":"Shape","properties":{"Sport":"Petanque","Status":"A","Naam":"Jules de Saint-Genoislaan, De Porre","SportID":"43","NUMMER":9,"Wijk":"Moskou - Vogelhoek"}},{"type":"Feature","id":"Buurtsportinfrastructuur.195","geometry":{"type":"Point","coordinates":[3.7299556496452,51.030097715286]},"geometry_name":"Shape","properties":{"Sport":"Petanque","Status":"A","Naam":"Ottergemsesteenweg","SportID":"44","NUMMER":14,"Wijk":"Nieuw Gent - UZ"}},{"type":"Feature","id":"Buurtsportinfrastructuur.196","geometry":{"type":"Point","coordinates":[3.7691846091821,51.037289913643]},"geometry_name":"Shape","properties":{"Sport":"Buurtvoetbal","Status":"A","Naam":"Driebeekstraat","SportID":"45","NUMMER":6,"Wijk":"Gentbrugge"}},{"type":"Feature","id":"Buurtsportinfrastructuur.197","geometry":{"type":"Point","coordinates":[3.7503989079083,51.060315689364]},"geometry_name":"Shape","properties":{"Sport":"Buurtvoetbal","Status":"A","Naam":"Azaleapark, basisschool De Wonderfluit","SportID":null,"NUMMER":null,"Wijk":"Sint-Amandsberg"}}],"crs":{"type":"name","properties":{"name":"urn:ogc:def:crs:EPSG::4326"}}}